[
  {
    "id": "london",
    "label": "London",
    "region": "London",
    "viewport": {
      "zoom": 11,
      "longitude": -0.1056524,
      "latitude": 51.5044484
    }
  },
  {
    "id": "manchester",
    "label": "Manchester",
    "region": "North West",
    "viewport": {
      "zoom": 11,
      "longitude": -2.23333,
      "latitude": 53.46667
    }
  },
  {
    "id": "lancashire",
    "label": "Lancashire/Cumbria (B4RN)",
    "region": "North West",
    "viewport": {
      "zoom": 11,
      "longitude": -2.6341,
      "latitude": 54.1043
    }
  },
  {
    "id": "south-coast",
    "label": "South coast",
    "region": "South East",
    "viewport": {
      "zoom": 9,
      "longitude": -0.291,
      "latitude": 50.893
    }
  },
  {
    "id": "south-wales",
    "label": "South Wales",
    "region": "Wales",
    "viewport": {
      "zoom": 9,
      "longitude": -3.501,
      "latitude": 51.5536
    }
  },
  {
    "id": "hull",
    "label": "Hull",
    "region": "Yorkshire and The Humber",
    "viewport": {
      "zoom": 11,
      "longitude": -0.3362,
      "latitude": 53.7701
    }
  },
  {
    "id": "aberdeen",
    "label": "Aberdeen",
    "region": "Scotland",
    "viewport": {
      "zoom": 11,
      "longitude": -2.1782,
      "latitude": 57.1661
    }
  },
  {
    "id": "glasgow",
    "label": "Glasgow",
    "region": "Scotland",
    "viewport": {
      "zoom": 11,
      "longitude": -4.2508,
      "latitude": 55.8674
    }
  },
  {
    "id": "cornwall",
    "label": "Cornwall",
    "region": "South West",
    "viewport": {
      "zoom": 8,
      "longitude": -4.754,
      "latitude": 50.386
    }
  },
  {
    "id": "east",
    "label": "East of England",
    "region": "East of England",
    "viewport": {
      "zoom": 8,
      "longitude": 0.92,
      "latitude": 52.299
    }
  }
]
